{"type":"FeatureCollection","features":[{"type":"Feature","properties":{"city":"Kabul","latitude":"34.5328","longitude":"69.1658","country":"Afghanistan","iso2":"AF","admin_name":"Kābul","capital":"primary","population":"3678034","population_proper":"3678034","id":"2e3aa9647f52"},"geometry":{"type":"Point","coordinates":[69.1658,34.5328]},"id":"2e3aa9647f52"},{"type":"Feature","properties":{"city":"Kandahār","latitude":"31.6078","longitude":"65.7053","country":"Afghanistan","iso2":"AF","admin_name":"Kandahār","capital":"admin","population":"491500","population_proper":"491500","id":"32ebd8384795"},"geometry":{"type":"Point","coordinates":[65.7053,31.6078]},"id":"32ebd8384795"},{"type":"Feature","properties":{"city":"Herāt","latitude":"34.3738","longitude":"62.1792","country":"Afghanistan","iso2":"AF","admin_name":"Herāt","capital":"admin","population":"436300","population_proper":"436300","id":"9e44baebda35"},"geometry":{"type":"Point","coordinates":[62.1792,34.3738]},"id":"9e44baebda35"},{"type":"Feature","properties":{"city":"Mazār-e Sharīf","latitude":"36.7000","longitude":"67.1167","country":"Afghanistan","iso2":"AF","admin_name":"Balkh","capital":"admin","population":"427600","population_proper":"427600","id":"77b01b539493"},"geometry":{"type":"Point","coordinates":[67.1167,36.7]},"id":"77b01b539493"},{"type":"Feature","properties":{"city":"Kunduz","latitude":"36.7280","longitude":"68.8725","country":"Afghanistan","iso2":"AF","admin_name":"Kunduz","capital":"admin","population":"259809","population_proper":"161902","id":"c2b03a11e1d1"},"geometry":{"type":"Point","coordinates":[68.8725,36.728]},"id":"c2b03a11e1d1"},{"type":"Feature","properties":{"city":"Jalālābād","latitude":"34.4303","longitude":"70.4528","country":"Afghanistan","iso2":"AF","admin_name":"Nangarhār","capital":"admin","population":"205423","population_proper":"205423","id":"ed47f5cb407c"},"geometry":{"type":"Point","coordinates":[70.4528,34.4303]},"id":"ed47f5cb407c"},{"type":"Feature","properties":{"city":"Lashkar Gāh","latitude":"31.5938","longitude":"64.3716","country":"Afghanistan","iso2":"AF","admin_name":"Helmand","capital":"admin","population":"201546","population_proper":"201546","id":"64f7f61257cc"},"geometry":{"type":"Point","coordinates":[64.3716,31.5938]},"id":"64f7f61257cc"},{"type":"Feature","properties":{"city":"Maīmanah","latitude":"35.9302","longitude":"64.7701","country":"Afghanistan","iso2":"AF","admin_name":"Fāryāb","capital":"admin","population":"199795","population_proper":"199795","id":"b50eddab591c"},"geometry":{"type":"Point","coordinates":[64.7701,35.9302]},"id":"b50eddab591c"},{"type":"Feature","properties":{"city":"Shibirghān","latitude":"36.6650","longitude":"65.7520","country":"Afghanistan","iso2":"AF","admin_name":"Jowzjān","capital":"admin","population":"175599","population_proper":"175599","id":"44e7611b34c1"},"geometry":{"type":"Point","coordinates":[65.752,36.665]},"id":"44e7611b34c1"},{"type":"Feature","properties":{"city":"Khōst","latitude":"33.3333","longitude":"69.9167","country":"Afghanistan","iso2":"AF","admin_name":"Khōst","capital":"admin","population":"160214","population_proper":"160214","id":"57467f8f54ed"},"geometry":{"type":"Point","coordinates":[69.9167,33.3333]},"id":"57467f8f54ed"},{"type":"Feature","properties":{"city":"Ghaznī","latitude":"33.5492","longitude":"68.4233","country":"Afghanistan","iso2":"AF","admin_name":"Ghaznī","capital":"admin","population":"143379","population_proper":"143379","id":"228ca02d0911"},"geometry":{"type":"Point","coordinates":[68.4233,33.5492]},"id":"228ca02d0911"},{"type":"Feature","properties":{"city":"Pul-e Khumrī","latitude":"35.9500","longitude":"68.7000","country":"Afghanistan","iso2":"AF","admin_name":"Baghlān","capital":"admin","population":"113500","population_proper":"113500","id":"28aa713f1788"},"geometry":{"type":"Point","coordinates":[68.7,35.95]},"id":"28aa713f1788"},{"type":"Feature","properties":{"city":"Tāluqān","latitude":"36.7167","longitude":"69.5167","country":"Afghanistan","iso2":"AF","admin_name":"Takhār","capital":"admin","population":"77000","population_proper":"77000","id":"591f9616e42b"},"geometry":{"type":"Point","coordinates":[69.5167,36.7167]},"id":"591f9616e42b"},{"type":"Feature","properties":{"city":"Balkh","latitude":"36.7581","longitude":"66.8989","country":"Afghanistan","iso2":"AF","admin_name":"Balkh","capital":"minor","population":"77000","population_proper":"77000","id":"b8bdafe35ba6"},"geometry":{"type":"Point","coordinates":[66.8989,36.7581]},"id":"b8bdafe35ba6"},{"type":"Feature","properties":{"city":"Farāh","latitude":"32.3436","longitude":"62.1194","country":"Afghanistan","iso2":"AF","admin_name":"Farāh","capital":"admin","population":"73647","population_proper":"43561","id":"d22b91c53f80"},"geometry":{"type":"Point","coordinates":[62.1194,32.3436]},"id":"d22b91c53f80"},{"type":"Feature","properties":{"city":"Baghlān","latitude":"36.1328","longitude":"68.7000","country":"Afghanistan","iso2":"AF","admin_name":"Baghlān","capital":"minor","population":"73031","population_proper":"73031","id":"b14a2a8a24ad"},"geometry":{"type":"Point","coordinates":[68.7,36.1328]},"id":"b14a2a8a24ad"},{"type":"Feature","properties":{"city":"Gardēz","latitude":"33.5931","longitude":"69.2297","country":"Afghanistan","iso2":"AF","admin_name":"Paktiyā","capital":"admin","population":"70000","population_proper":"70000","id":"add5cfc885ab"},"geometry":{"type":"Point","coordinates":[69.2297,33.5931]},"id":"add5cfc885ab"},{"type":"Feature","properties":{"city":"Faīẕābād","latitude":"37.1298","longitude":"70.5792","country":"Afghanistan","iso2":"AF","admin_name":"Badakhshān","capital":"admin","population":"64704","population_proper":"40276","id":"692fe75d19a1"},"geometry":{"type":"Point","coordinates":[70.5792,37.1298]},"id":"692fe75d19a1"},{"type":"Feature","properties":{"city":"Bāmyān","latitude":"34.8167","longitude":"67.8167","country":"Afghanistan","iso2":"AF","admin_name":"Bāmyān","capital":"admin","population":"61863","population_proper":"61863","id":"d44510727a06"},"geometry":{"type":"Point","coordinates":[67.8167,34.8167]},"id":"d44510727a06"},{"type":"Feature","properties":{"city":"Chārīkār","latitude":"35.0183","longitude":"69.1679","country":"Afghanistan","iso2":"AF","admin_name":"Parwān","capital":"admin","population":"53676","population_proper":"53676","id":"1e926c3871ce"},"geometry":{"type":"Point","coordinates":[69.1679,35.0183]},"id":"1e926c3871ce"},{"type":"Feature","properties":{"city":"Sar-e Pul","latitude":"36.2214","longitude":"65.9278","country":"Afghanistan","iso2":"AF","admin_name":"Sar-e Pul","capital":"admin","population":"51075","population_proper":"51075","id":"4596c9e6db8d"},"geometry":{"type":"Point","coordinates":[65.9278,36.2214]},"id":"4596c9e6db8d"},{"type":"Feature","properties":{"city":"Zaranj","latitude":"30.9600","longitude":"61.8600","country":"Afghanistan","iso2":"AF","admin_name":"Nīmrōz","capital":"admin","population":"49851","population_proper":"49851","id":"e679cebe6218"},"geometry":{"type":"Point","coordinates":[61.86,30.96]},"id":"e679cebe6218"},{"type":"Feature","properties":{"city":"Asadābād","latitude":"34.8742","longitude":"71.1528","country":"Afghanistan","iso2":"AF","admin_name":"Kunaṟ","capital":"admin","population":"48400","population_proper":"48400","id":"1393c4048d0a"},"geometry":{"type":"Point","coordinates":[71.1528,34.8742]},"id":"1393c4048d0a"},{"type":"Feature","properties":{"city":"Maīdān Shahr","latitude":"34.3972","longitude":"68.8697","country":"Afghanistan","iso2":"AF","admin_name":"Wardak","capital":"admin","population":"35008","population_proper":"35008","id":"1130f6618949"},"geometry":{"type":"Point","coordinates":[68.8697,34.3972]},"id":"1130f6618949"},{"type":"Feature","properties":{"city":"Kōṯah-ye ‘As̲h̲rō","latitude":"34.4500","longitude":"68.8000","country":"Afghanistan","iso2":"AF","admin_name":"Wardak","capital":"","population":"35008","population_proper":"35008","id":"8073367848b7"},"geometry":{"type":"Point","coordinates":[68.8,34.45]},"id":"8073367848b7"},{"type":"Feature","properties":{"city":"Khulm","latitude":"36.6833","longitude":"67.6833","country":"Afghanistan","iso2":"AF","admin_name":"Balkh","capital":"minor","population":"28078","population_proper":"28078","id":"bd8d1f8742d1"},"geometry":{"type":"Point","coordinates":[67.6833,36.6833]},"id":"bd8d1f8742d1"},{"type":"Feature","properties":{"city":"Khānābād","latitude":"36.6831","longitude":"69.1636","country":"Afghanistan","iso2":"AF","admin_name":"Kunduz","capital":"minor","population":"26803","population_proper":"26803","id":"5e1d446391ac"},"geometry":{"type":"Point","coordinates":[69.1636,36.6831]},"id":"5e1d446391ac"},{"type":"Feature","properties":{"city":"Barakī Barak","latitude":"33.9667","longitude":"68.9667","country":"Afghanistan","iso2":"AF","admin_name":"Lōgar","capital":"minor","population":"22305","population_proper":"22305","id":"3df4601e818c"},"geometry":{"type":"Point","coordinates":[68.9667,33.9667]},"id":"3df4601e818c"},{"type":"Feature","properties":{"city":"Karukh","latitude":"34.4868","longitude":"62.5918","country":"Afghanistan","iso2":"AF","admin_name":"Herāt","capital":"minor","population":"17484","population_proper":"11293","id":"44718054f484"},"geometry":{"type":"Point","coordinates":[62.5918,34.4868]},"id":"44718054f484"},{"type":"Feature","properties":{"city":"Mehtar Lām","latitude":"34.6500","longitude":"70.1833","country":"Afghanistan","iso2":"AF","admin_name":"Laghmān","capital":"admin","population":"17345","population_proper":"17345","id":"2cfa61ffa701"},"geometry":{"type":"Point","coordinates":[70.1833,34.65]},"id":"2cfa61ffa701"},{"type":"Feature","properties":{"city":"Fayrōz Kōh","latitude":"34.5225","longitude":"65.2517","country":"Afghanistan","iso2":"AF","admin_name":"Ghōr","capital":"admin","population":"15000","population_proper":"15000","id":"9450d196cd0c"},"geometry":{"type":"Point","coordinates":[65.2517,34.5225]},"id":"9450d196cd0c"},{"type":"Feature","properties":{"city":"Andkhōy","latitude":"36.9500","longitude":"65.1167","country":"Afghanistan","iso2":"AF","admin_name":"Fāryāb","capital":"minor","population":"13137","population_proper":"13137","id":"71f04332a63a"},"geometry":{"type":"Point","coordinates":[65.1167,36.95]},"id":"71f04332a63a"},{"type":"Feature","properties":{"city":"Qalāt","latitude":"32.1061","longitude":"66.9069","country":"Afghanistan","iso2":"AF","admin_name":"Zābul","capital":"admin","population":"12191","population_proper":"12191","id":"8660ae973ed6"},"geometry":{"type":"Point","coordinates":[66.9069,32.1061]},"id":"8660ae973ed6"},{"type":"Feature","properties":{"city":"Tarīn Kōṯ","latitude":"32.6333","longitude":"65.8667","country":"Afghanistan","iso2":"AF","admin_name":"Uruzgān","capital":"admin","population":"10000","population_proper":"10000","id":"64c3d8078c0d"},"geometry":{"type":"Point","coordinates":[65.8667,32.6333]},"id":"64c3d8078c0d"},{"type":"Feature","properties":{"city":"Maḩmūd-e Rāqī","latitude":"35.0167","longitude":"69.3333","country":"Afghanistan","iso2":"AF","admin_name":"Kāpīsā","capital":"admin","population":"7407","population_proper":"7407","id":"cae95ccd8f6f"},"geometry":{"type":"Point","coordinates":[69.3333,35.0167]},"id":"cae95ccd8f6f"},{"type":"Feature","properties":{"city":"Qal‘ah-ye Now","latitude":"34.9900","longitude":"63.1200","country":"Afghanistan","iso2":"AF","admin_name":"Bādghīs","capital":"admin","population":"5340","population_proper":"5340","id":"6d83cc8e9b7c"},"geometry":{"type":"Point","coordinates":[63.12,34.99]},"id":"6d83cc8e9b7c"},{"type":"Feature","properties":{"city":"Aībak","latitude":"36.2534","longitude":"68.0394","country":"Afghanistan","iso2":"AF","admin_name":"Samangān","capital":"admin","population":"4938","population_proper":"4938","id":"b84b25d3da9f"},"geometry":{"type":"Point","coordinates":[68.0394,36.2534]},"id":"b84b25d3da9f"}]}